{
    "Austria":
    {
  "city": "Vienna",
  "lat": 48.20839521298617,
  "lng": 16.377014185490296
 },
 "Belgium": {
  "city": "Brussels",
  "lat": 50.84807243159824,
  "lng": 4.347938799267547
 },
 "Bulgaria":{
  "city": "Sofia",
  "lat": 42.70334940700263,
  "lng": 23.31918661013195
 },
 "Croatia":{
  "city": "Zagreb",
  "lat": 45.81646641348696,
  "lng": 15.989028872212435
 },
 "Cyprus":{
  "city": "Nicosia",
  "lat": 35.18476619620197,
  "lng": 33.383928438776145
 },
 "Czech Republic":{
  "city": "Prague",
  "lat": 50.089539799169756,
  "lng": 14.410497565460673
 },
 "Denmark":{
  "city": "Copenhagen",
  "lat": 55.677797182447776,
  "lng": 12.602019764791343
 },
 "Estonia":{
  "city": "Tallinn",
  "lat": 59.4393269543909,
  "lng": 24.75182269956004
 },
 "Finland":{
  "city": "Helsinki",
  "lat": 60.17553381989977,
  "lng": 24.958109723823345
 },
 "France":{
  "city": "Paris",
  "lat": 48.8529656274534,
  "lng": 2.346983697386509
 },
 "Germany":{
  "city": "Berlin",
  "lat": 52.56637257387096,
  "lng": 13.396583969710687
 },
 "Greece":{
  "city": "Athens",
  "lat": 37.98368739504533,
  "lng": 23.73077081997329
 },
 "Hungary":{
  "city": "Budapest",
  "lat": 47.50716858117588,
  "lng": 19.110870550069137
 },
 "Ireland":{
  "city": "Dublin",
  "lat": 53.35530899644166,
  "lng": -6.295321933209926
 },
 "Italy": {
  "city": "Rome",
  "lat": 41.891838532978554,
  "lng": 12.489075873812087
 },
 "Latvia":{
  "city": "Riga",
  "lat": 56.96853407929654,
  "lng": 24.128911867820158
 },
 "Lithuania":{
  "city": "Vilnius",
  "lat": 54.69572836054502,
  "lng": 25.31328577888826
 },
 "Luxembourg":{
  "city": "Luxembourg City",
  "lat": 49.61104802067975,
  "lng": 6.150963453585778
 },
 "Malta": {
  "city": "Valletta",
  "lat": 35.899292977856504,
  "lng": 14.513337105474495
 },
"Netherlands": {
  "city": "Amsterdam",
  "lat": 52.37128843924478,
  "lng": 4.944975156087037
 },
"Poland": {
  "city": "Warsaw",
  "lat": 52.23666692675929,
  "lng": 20.996515166607363
 },
 "Portugal":{
  "city": "Lisbon",
  "lat": 38.723074769528466,
  "lng": -9.12953867570136
 },
 "Romania":{
  "city": "Bucharest",
  "lat": 44.427547402727406,
  "lng": 26.09320851816785
 },
 "Slovakia":{
  "city": "Bratislava",
  "lat": 48.137568641643554,
  "lng": 17.060781961401375
 },
 "Slovenia":{
  "city": "Ljubljana",
  "lat": 46.05421037233905,
  "lng": 14.505952427558798
 },
 "Spain":{
  "city": "Madrid",
  "lat": 40.43817961574094,
  "lng": -3.701745344258538
 },
 "Sweden":{
  "city": "Stockholm",
  "lat": 59.32728681498358,
  "lng": 18.10549889234918
 }
}
